<kml xmlns="http://earth.google.com/kml/2.0"><Folder><name>OpenLayers export</name><description>Exported on Wed Jul 18 2018 12:08:46 GMT+0200 (Hora de verano romance)</description><Placemark><name>Asociación de Familiares de Enfermos de Alzheimer</name><description>No description available</description><Point><coordinates>-2.949361,35.301957999999985</coordinates></Point></Placemark><Placemark><name>Afal Asociación de Familiares de Alzheimer de Andalucía</name><description>No description available</description><Point><coordinates>-4.427675,36.72043399999998</coordinates></Point></Placemark><Placemark><name>Asociación de Familiares de Alzheimer de Andalucía</name><description>No description available</description><Point><coordinates>-4.408938,36.73491999999998</coordinates></Point></Placemark><Placemark><name>Afal Asociación de Familiares de Enfermos de Alzheimer</name><description>No description available</description><Point><coordinates>-4.625974,36.53373299999999</coordinates></Point></Placemark><Placemark><name>Afal Asociación de Familiares de Alzheimer</name><description>No description available</description><Point><coordinates>-4.102804,36.783229</coordinates></Point></Placemark><Placemark><name>Asociación Enfermos de Alzheimer de Pizarra</name><description>No description available</description><Point><coordinates>-4.709907,36.76199399999999</coordinates></Point></Placemark><Placemark><name>Asociación de Alzheimer</name><description>No description available</description><Point><coordinates>-4.705425,36.82598299999998</coordinates></Point></Placemark><Placemark><name>Afedac Asociación de Familiares de Enfermos de Alzheimer de Antequera y Comarca</name><description>No description available</description><Point><coordinates>-4.565498,37.018677999999994</coordinates></Point></Placemark><Placemark><name>Asociación de Alzheimer</name><description>No description available</description><Point><coordinates>-4.759794,36.66068099999999</coordinates></Point></Placemark><Placemark><name>Asociación de Familiares Alzheimer Mijas</name><description>No description available</description><Point><coordinates>-4.637619,36.59569899999999</coordinates></Point></Placemark><Placemark><name>Asociación Familiares Enfermos de Alzheimer</name><description>No description available</description><Point><coordinates>-0.8722730000000001,41.641774999999996</coordinates></Point></Placemark><Placemark><name>Ceafa Confederación Española de Familiares de Enfermos de Alzheimer y Otras Demencias</name><description>No description available</description><Point><coordinates>-1.6464599999999998,42.824860000000015</coordinates></Point></Placemark><Placemark><name>Alzheimer Bierzo Asociación de Enfermos de Alzheimer del Bierzo</name><description>No description available</description><Point><coordinates>-6.610987999999999,42.54794699999999</coordinates></Point></Placemark><Placemark><name>Afac Asociación de Familiares de Enfermos de Alzheimer de Cantabria</name><description>No description available</description><Point><coordinates>-3.7792970000000006,43.452918999999994</coordinates></Point></Placemark><Placemark><name>Agadea. Asociación Galega Para A Axuda Dos Enfermos de Alzheimer</name><description>No description available</description><Point><coordinates>-8.525391,42.90815999999999</coordinates></Point></Placemark><Placemark><name>Fafal Federación de Asociaciones de Enfermos de Alzheimer y Otras Demencias</name><description>No description available</description><Point><coordinates>-3.777373,40.237159</coordinates></Point></Placemark><Placemark><name>AFAMSO, Asociación de enfermos de Alzheimer Móstoles</name><description>No description available</description><Point><coordinates>-3.8798960000000005,40.32122</coordinates></Point></Placemark><Placemark><name>Asociación de Familiares de Enfermos de Alzheimer</name><description>No description available</description><Point><coordinates>-3.4368680000000005,40.30240000000001</coordinates></Point></Placemark><Placemark><name>Asociacion de Familiares de Enfermos de Alzheimer</name><description>No description available</description><Point><coordinates>-4.02444,39.868599999999994</coordinates></Point></Placemark><Placemark><name>Afads Asociación de Familiares de Enfermos de Alzheimer y Demencias Seniles Vegas Altas de la Serena</name><description>No description available</description><Point><coordinates>-5.870363000000001,38.95512200000001</coordinates></Point></Placemark><Placemark><name>Afaex Asociación Familiares de Enfermos de Alzheimer Extremadura</name><description>No description available</description><Point><coordinates>-6.97905,38.87008399999999</coordinates></Point></Placemark><Placemark><name>Asociación de Familiares de Enfermos de Alzheimer</name><description>No description available</description><Point><coordinates>-4.024483,39.86857799999999</coordinates></Point></Placemark><Placemark><name>Asociacion de Familiares de Enfermos de Alzheimer</name><description>No description available</description><Point><coordinates>-4.024357,39.868609000000006</coordinates></Point></Placemark><Placemark><name>AFAL Tomelloso (Centro de Día San Rafael)</name><description>No description available</description><Point><coordinates>-3.007126,39.16227899999997</coordinates></Point></Placemark><Placemark><name>AFA Parla (Asociación de Familiares de Enfermos de Alzheimer)</name><description>No description available</description><Point><coordinates>-3.7774239999999994,40.237206999999984</coordinates></Point></Placemark><Placemark><name>Fundación Alzheimer España</name><description>No description available</description><Point><coordinates>-3.686821,40.46232199999999</coordinates></Point></Placemark><Placemark><name>Centro Alzheimer Fundación Reina Sofía Gestión Pública</name><description>No description available</description><Point><coordinates>-3.627963,40.372069999999994</coordinates></Point></Placemark><Placemark><name>Associacio de Familiars d'Alzheimer de Barcelona</name><description>No description available</description><Point><coordinates>2.182307,41.40527199999999</coordinates></Point></Placemark><Placemark><name>Asociación Alzheimer de Cataluña</name><description>No description available</description><Point><coordinates>2.168382,41.398084000000004</coordinates></Point></Placemark><Placemark><name>Associació de Familiars Amb Alzheimer</name><description>No description available</description><Point><coordinates>2.175002,41.38669199999999</coordinates></Point></Placemark><Placemark><name>Centre de Dia per malalts d'Alzheimer Cuidem la Memoria</name><description>No description available</description><Point><coordinates>2.14782,41.40300499999999</coordinates></Point></Placemark><Placemark><name>Afa Asociación Familiares Alzheimer del Baix Llobregat</name><description>No description available</description><Point><coordinates>2.093047,41.33001</coordinates></Point></Placemark><Placemark><name>Alzheimer León</name><description>No description available</description><Point><coordinates>-5.564306,42.588478</coordinates></Point></Placemark><Placemark><name>Asoc Alzheimer Santa Elena</name><description>No description available</description><Point><coordinates>-5.99582,37.374120999999995</coordinates></Point></Placemark><Placemark><name>Afa Asociación Familiares Enfermos de Alzheimer</name><description>No description available</description><Point><coordinates>-6.752992,37.572427000000005</coordinates></Point></Placemark><Placemark><name>Asociación de Familiares de Enfermos de Alzheimer y Otras Demencias</name><description>No description available</description><Point><coordinates>-5.32983,35.88619</coordinates></Point></Placemark><Placemark><name>Asociación de Familiares de Enfermos de Alzheimer y Otras Demencias</name><description>No description available</description><Point><coordinates>-5.32983,35.88619</coordinates></Point></Placemark><Placemark><name>Asociación de Cuidadores de Enfermos de Alzeimer Bezmiliana</name><description>No description available</description><Point><coordinates>-4.28071,36.714639999999996</coordinates></Point></Placemark><Placemark><name>Asociación Familiares Enfermosde Alzheimer</name><description>No description available</description><Point><coordinates>-0.40699900000000006,42.14113199999999</coordinates></Point></Placemark><Placemark><name>Afa Astorga Asociación de Familiares de Enfermos de Alzheimer</name><description>No description available</description><Point><coordinates>-6.052429,42.45788000000001</coordinates></Point></Placemark><Placemark><name>Asociación Aspe Contra el Alzheimer</name><description>No description available</description><Point><coordinates>-0.768186,38.338746</coordinates></Point></Placemark><Placemark><name>ASOCIACIÓN ALZHECON</name><description>No description available</description><Point><coordinates>-3.202874,36.790912999999996</coordinates></Point></Placemark><Placemark><name>AROAL (ASOCIACION RONDEÑA DE ALZHEIMER)</name><description>No description available</description><Point><coordinates>-5.152416,36.725813999999986</coordinates></Point></Placemark><Placemark><name>Afal Ferrolterra</name><description>No description available</description><Point><coordinates>-8.217773,43.49278299999999</coordinates></Point></Placemark><Placemark><name>Afa Asociación Familiares Enfermos y Colaboradores de Alzheimer de la Marina Baja</name><description>No description available</description><Point><coordinates>-0.129651,38.540089</coordinates></Point></Placemark><Placemark><name>Afa Asociación de Familiares de Enfermos de Alzheimer</name><description>No description available</description><Point><coordinates>-5.644807999999999,40.966935</coordinates></Point></Placemark><Placemark><name>AFA - Asociación de Familiares de Enfermos de Alzheimer de Salamanca</name><description>No description available</description><Point><coordinates>-5.666468,40.984077000000006</coordinates></Point></Placemark><Placemark><name>Afa Asociación Familiares de Alzheimer de Cornellá de Llobregat</name><description>No description available</description><Point><coordinates>2.080788,41.36649299999999</coordinates></Point></Placemark><Placemark><name>Afa Asociación Familiares Alzheimer del Baix Llobregat</name><description>No description available</description><Point><coordinates>2.093047,41.33001</coordinates></Point></Placemark><Placemark><name>Afa Associació de Familiars de Malalts D'Alzheimer del Maresme</name><description>No description available</description><Point><coordinates>2.449069,41.54003499999999</coordinates></Point></Placemark><Placemark><name>AFA Castellón Centro de Día La Vall d'Uixó - Alzheimer</name><description>No description available</description><Point><coordinates>-0.233966,39.827213999999984</coordinates></Point></Placemark><Placemark><name>Afa Asociación Familiares Enfermos y Colaboradores de Alzheimer de la Marina Baja</name><description>No description available</description><Point><coordinates>-0.129651,38.540089</coordinates></Point></Placemark><Placemark><name>Afa Alzheimer Torrevieja</name><description>No description available</description><Point><coordinates>-0.690945,37.97856199999998</coordinates></Point></Placemark><Placemark><name>Afa Astorga Asociación de Familiares de Enfermos de Alzheimer</name><description>No description available</description><Point><coordinates>-6.052429,42.45788000000001</coordinates></Point></Placemark><Placemark><name>Afa San Paulino Asociación de Familiares de Enfermos de Alzheimer San Paulino</name><description>No description available</description><Point><coordinates>-5.919780000000001,36.186583999999996</coordinates></Point></Placemark><Placemark><name>Afa Asociación Familiares Enfermos de Alzheimer de Huelva</name><description>No description available</description><Point><coordinates>-6.9322,37.26133799999999</coordinates></Point></Placemark><Placemark><name>Afa El Trigal Asociación de Familiares de Enfermos de Alzheimer</name><description>No description available</description><Point><coordinates>-6.833985,37.381437999999996</coordinates></Point></Placemark><Placemark><name>Afa Asociación Familiares Enfermos de Alzheimer</name><description>No description available</description><Point><coordinates>-6.7529829999999995,37.57241500000001</coordinates></Point></Placemark><Placemark><name>Afa Asociación de Familiares y Enfermos de Alzheimer</name><description>No description available</description><Point><coordinates>-0.6795840000000001,38.270177</coordinates></Point></Placemark><Placemark><name>Faco Asociación de Familiares de Enfermos de Alzheimer y Otras Demencias de Pontevedra</name><description>No description available</description><Point><coordinates>-8.646328,42.43376299999999</coordinates></Point></Placemark><Placemark><name>Asociación de Familiares de Enfermos de Alzheimer del Morrazo</name><description>No description available</description><Point><coordinates>-8.732974,42.30270299999999</coordinates></Point></Placemark><Placemark><name>A.F.A.G.A. Asociación de Familiares de Enfermos de Alzheimer de Galicia</name><description>No description available</description><Point><coordinates>-8.70213,42.22667999999999</coordinates></Point></Placemark><Placemark><name>Asociacion de Familiares de Enfermos de Alzheimer</name><description>No description available</description><Point><coordinates>-4.024401,39.868662000000015</coordinates></Point></Placemark><Placemark><name>Afalmo - Asociación Familiares Alzheimer Mesa Ocaña</name><description>No description available</description><Point><coordinates>-3.440805,39.980802999999995</coordinates></Point></Placemark><Placemark><name>Afal Asociación de Alzheimer</name><description>No description available</description><Point><coordinates>-3.6858250000000004,40.19446099999999</coordinates></Point></Placemark><Placemark><name>Afalcontigo. Asociación Nacional del Alzheimer</name><description>No description available</description><Point><coordinates>-3.676816,40.42821599999999</coordinates></Point></Placemark><Placemark><name>Afaex Asociación Familiares de Enfermos de Alzheimer Extremadura</name><description>No description available</description><Point><coordinates>-6.624755999999999,38.61686999999999</coordinates></Point></Placemark><Placemark><name>Asoc. de Familiares de Alzheimer</name><description>No description available</description><Point><coordinates>-6.273193,36.50411699999997</coordinates></Point></Placemark><Placemark><name>Asociación de Familiares de Enfermos de Alzheimer</name><description>No description available</description><Point><coordinates>-5.605774,36.013561</coordinates></Point></Placemark><Placemark><name>Asociación Familiares de Enfermos de Alzheimer de la Línea</name><description>No description available</description><Point><coordinates>-5.340729,36.167814</coordinates></Point></Placemark><Placemark><name>Asociación de Amigos y Familiares de Enfermos de Alzheimer de Castalla y Comarca</name><description>No description available</description><Point><coordinates>-0.674286,38.594333999999996</coordinates></Point></Placemark><Placemark><name>Afav - Asociación de Familiares de Alzheimer de Valencia</name><description>No description available</description><Point><coordinates>-0.403748,39.456342</coordinates></Point></Placemark><Placemark><name>Afa Castellón Asociación de Familiares de Enfermos de Alzheimer de Castellón</name><description>No description available</description><Point><coordinates>-0.041199000000000006,39.98764299999999</coordinates></Point></Placemark><Placemark><name>Afam Associació de Familiars de Malalts D'Alzheimer del Montsia</name><description>No description available</description><Point><coordinates>0.579529,40.70354599999999</coordinates></Point></Placemark><Placemark><name>Associació de Familiars Amb Alzheimer de Lleida</name><description>No description available</description><Point><coordinates>0.6152340000000001,41.623655</coordinates></Point></Placemark><Placemark><name>Asociación de Familiares Enfermos de Alzheimer de Soria</name><description>No description available</description><Point><coordinates>-2.48291,41.77131199999998</coordinates></Point></Placemark><Placemark><name>Asociación Alzheimer Lorca</name><description>No description available</description><Point><coordinates>-1.691895,37.666428999999994</coordinates></Point></Placemark><Placemark><name>Asociación de Familiares de Enfermos de Alzheimer de la Comarca de Cazorla</name><description>No description available</description><Point><coordinates>-3.010254,37.909534</coordinates></Point></Placemark><Placemark><name>Asociación Familiares y Enfermos de Alzheimer y Otras Demencias</name><description>No description available</description><Point><coordinates>-3.977051,37.718589999999985</coordinates></Point></Placemark><Placemark><name>Asociación de Familiares de Enfermos de Alzheimer Afavida</name><description>No description available</description><Point><coordinates>-3.691406,36.738883999999985</coordinates></Point></Placemark><Placemark><name>Asociación San Rafael de Alzheimer y Otras Demencias</name><description>No description available</description><Point><coordinates>-4.790038999999999,37.874853</coordinates></Point></Placemark><Placemark><name>Centro de Día de la Asociación de Familiares de Enfermos de Alzheimer y Otras Demencias de Valdepeñas Afa Valdepeñas Gestión Privada</name><description>No description available</description><Point><coordinates>-3.383789,38.771215999999995</coordinates></Point></Placemark><Placemark><name>Afade Asociación de Familiares de Enfermos de Alzheimer de Alcantarilla y Otras Demencias Afines</name><description>No description available</description><Point><coordinates>-1.230469,37.961522999999985</coordinates></Point></Placemark><Placemark><name>OpenLayers_Feature_Vector_1278</name><description>No description available</description><Point><coordinates>-1.23042,37.961504</coordinates></Point></Placemark><Placemark><name>OpenLayers_Feature_Vector_1280</name><description>No description available</description><Point><coordinates>-6.624726,38.616855999999984</coordinates></Point></Placemark><Placemark><name>Asociación Cacereña de Familiares de Enfermos de Alzheimer</name><description>No description available</description><Point><coordinates>-6.372070000000001,39.47012499999999</coordinates></Point></Placemark><Placemark><name>Asociación de Familiares Enfermos de Alzheimer de Coria</name><description>No description available</description><Point><coordinates>-6.525879000000001,39.993956000000004</coordinates></Point></Placemark><Placemark><name>Asociación de Familiares de Enfermos de Alzheimer y Otras Demencias de Cuenca. Afyedlacu</name><description>No description available</description><Point><coordinates>-2.15332,40.061257</coordinates></Point></Placemark><Placemark><name>Afamap Asociación de Familiares y Amigos de Efermos de Alzheimer de Pollença</name><description>No description available</description><Point><coordinates>3.010254,39.87601899999999</coordinates></Point></Placemark><Placemark><name>INAFA, Asociacion de Enfermos de Alzheimer Y Demencias Afines</name><description>No description available</description><Point><coordinates>-15.424805,27.916766999999997</coordinates></Point></Placemark><Placemark><name>Afate Asociación de Familiares de Enfermos de Alzheimer</name><description>No description available</description><Point><coordinates>-16.259766,28.459033000000005</coordinates></Point></Placemark><Placemark><name>Asociación de Familiares de Enfermos de Alzheimer de la Isla de la Palma Afa la Palma</name><description>No description available</description><Point><coordinates>-17.797852,28.671310999999978</coordinates></Point></Placemark><Placemark><name>Afavila Asociación de Familiares de Enfermos de Alzheimer de Ávila</name><description>No description available</description><Point><coordinates>-4.702148,40.647303999999984</coordinates></Point></Placemark><Placemark><name>Asociación de Familiares de Enfermos de Alzheimer</name><description>No description available</description><Point><coordinates>-4.526367,42.00032499999998</coordinates></Point></Placemark><Placemark><name>Afabur Asociación Familiares Enfermos Alzheimer Centro de Día</name><description>No description available</description><Point><coordinates>-3.691406,42.32606200000001</coordinates></Point></Placemark><Placemark><name>Centro de Día de la Asociación de Familiares de Enfermos de Alzheimer y Otras Demencias de Valdepeñas Afa Valdepeñas Gestión Privada</name><description>No description available</description><Point><coordinates>-3.383789,38.771215999999995</coordinates></Point></Placemark><Placemark><name>Afal Asociación de Familiares de Alzheimer</name><description>No description available</description><Point><coordinates>-4.108887,40.946714</coordinates></Point></Placemark><Placemark><name>Asociación Enfermos Alzheimer de la Comarca de Iscar</name><description>No description available</description><Point><coordinates>-4.54834,41.36031899999998</coordinates></Point></Placemark><Placemark><name>Afal Asociación Familiares Enfermos Alzheimer de Estepona</name><description>No description available</description><Point><coordinates>-5.152588,36.43012199999999</coordinates></Point></Placemark><Placemark><name>Asociación de Alzheimer Hermana Agustina de Jesús</name><description>No description available</description><Point><coordinates>-5.646967000000001,36.86203799999999</coordinates></Point></Placemark><Placemark><name>OpenLayers_Feature_Vector_1312</name><description>No description available</description><Point><coordinates>-5.646935000000001,36.86204500000001</coordinates></Point></Placemark><Placemark><name>Asociación de Familiares de Enfermos de Alzheimer</name><description>No description available</description><Point><coordinates>-5.778809,37.18657900000001</coordinates></Point></Placemark><Placemark><name>Asociación de Alzheimer y Demencias Afines Conde García</name><description>No description available</description><Point><coordinates>-3.6364750000000003,38.099983</coordinates></Point></Placemark><Placemark><name>Asociación de Familiares y Enfermos de Alzheimer</name><description>No description available</description><Point><coordinates>-4.042969,38.039438999999994</coordinates></Point></Placemark><Placemark><name>Asociación de Familiares y Enfermos de Alzheimer</name><description>No description available</description><Point><coordinates>-4.042969,38.039438999999994</coordinates></Point></Placemark><Placemark><name>Afeda Asociación de Familiares de Enfermos de Alzheimer</name><description>No description available</description><Point><coordinates>-6.339111000000001,38.916682</coordinates></Point></Placemark><Placemark><name>Asociación de Familiares de Enfermos de Alzheimer AFAMO</name><description>No description available</description><Point><coordinates>-4.658203,37.57070499999999</coordinates></Point></Placemark><Placemark><name>Asociación de Familiares de Enfermos de Alzheimer de Arévalo</name><description>No description available</description><Point><coordinates>-4.713135,41.05450200000001</coordinates></Point></Placemark><Placemark><name>Afa Asociación de Familiares de Enfermos de Alzheimer</name><description>No description available</description><Point><coordinates>-4.844971,42.78733899999999</coordinates></Point></Placemark><Placemark><name>Asociación de Familiares de Enfermos de Alzheimer y Otros Problemas Neurologicos Derivados de la Edad Merindades</name><description>No description available</description><Point><coordinates>-3.5705569999999995,42.94033900000001</coordinates></Point></Placemark><Placemark><name>Afabur Asociación Familiares Enfermos Alzheimer Información General</name><description>No description available</description><Point><coordinates>-3.317871,42.55308</coordinates></Point></Placemark><Placemark><name>Afa Vizcaya Asociación de Familiares de Enfermos de Alzheimer</name><description>No description available</description><Point><coordinates>-2.922363,43.253204999999994</coordinates></Point></Placemark><Placemark><name>Afades Asociación de Familiares Enfermos de Alzheimer y Demencias Afines de Álava</name><description>No description available</description><Point><coordinates>-2.6916500000000005,42.843751</coordinates></Point></Placemark><Placemark><name>Asociación de Familiares de Enfermos de Alzheimer</name><description>No description available</description><Point><coordinates>-2.938843,42.68647300000001</coordinates></Point></Placemark><Placemark><name>Ada Alfaro Asociación Para la Demencia de Alzheimer</name><description>No description available</description><Point><coordinates>-1.7523190000000002,42.179688000000006</coordinates></Point></Placemark><Placemark><name>Asociación Provincial de Alzheimer Guadalajara</name><description>No description available</description><Point><coordinates>-3.1860350000000004,40.63062999999998</coordinates></Point></Placemark><Placemark><name>Asociacio de Familiars y Malalts de Alzheimer</name><description>No description available</description><Point><coordinates>1.268921,41.668809</coordinates></Point></Placemark><Placemark><name>Afama Associació de Familiars de Malats D'Alzheimer de Tárrega I Comarca</name><description>No description available</description><Point><coordinates>1.137085,41.648287999999994</coordinates></Point></Placemark><Placemark><name>Fadesia Familiars Demencia Senil I Alzheimer</name><description>No description available</description><Point><coordinates>2.823486,41.977869</coordinates></Point></Placemark><Placemark><name>Afeda Asociación de Familiares de Enfermos de Alzheimer</name><description>No description available</description><Point><coordinates>-1.604004,42.06560699999998</coordinates></Point></Placemark><Placemark><name>Asociación de Familiares de Enfermos de Alzheimer</name><description>No description available</description><Point><coordinates>-5.877686,42.480199999999996</coordinates></Point></Placemark><Placemark><name>Federación de Asociaciones Gallegas de Familiares Enfermos de Alzheimer Fagal</name><description>No description available</description><Point><coordinates>-8.554916,42.872441999999985</coordinates></Point></Placemark><Placemark><name>Agadea. Asociación Galega Para A Axuda Dos Enfermos de Alzheimer</name><description>No description available</description><Point><coordinates>-8.530884,42.89307</coordinates></Point></Placemark><Placemark><name>Asociación de Familiares de Enfermos de Alzheimer Inmaculada de Morón</name><description>No description available</description><Point><coordinates>-5.449219,37.125286</coordinates></Point></Placemark><Placemark><name>Asociación Enfermos de Alzheimer y Otras Demencias Sierra de Aracena</name><description>No description available</description><Point><coordinates>-6.569824,37.892195999999984</coordinates></Point></Placemark><Placemark><name>Afal Asociación de Familiares de Enfermos de Alzheimer</name><description>No description available</description><Point><coordinates>-2.15332,39.206719</coordinates></Point></Placemark><Placemark><name>Asoc de Familiares Enfermos Alzheimer de Vallad</name><description>No description available</description><Point><coordinates>-4.702148,41.664705</coordinates></Point></Placemark><Placemark><name>Afa Asociación Familiares y Amigos de Enfermos de Alzheimer de Alcoy</name><description>No description available</description><Point><coordinates>-0.47241200000000005,38.694084999999994</coordinates></Point></Placemark><Placemark><name>Ffedarm Federación de Alzheimer Región de Murcia</name><description>No description available</description><Point><coordinates>-1.131592,37.99832699999999</coordinates></Point></Placemark><Placemark><name>Asociación Estudios Sociales y Atención Alzheimer</name><description>No description available</description><Point><coordinates>-3.7116620000000005,40.414803000000006</coordinates></Point></Placemark><Placemark><name>Fae Fundación Alzheimer España</name><description>No description available</description><Point><coordinates>-3.6502079999999997,40.42813299999999</coordinates></Point></Placemark><Placemark><name>Afa Asociación de Alzheimer Alois Alzheimer</name><description>No description available</description><Point><coordinates>-3.8122560000000005,40.347590999999994</coordinates></Point></Placemark><Placemark><name>Associació D'Ajuda A Malalts D'Alzheimer</name><description>No description available</description><Point><coordinates>2.960815,42.261048999999986</coordinates></Point></Placemark><Placemark><name>ASOCIACIÓN ALZHECON</name><description>No description available</description><Point><coordinates>-3.202874,36.790912999999996</coordinates></Point></Placemark><Placemark><name>Ceafa Confederación Española de Familiares de Enfermos de Alzheimer y Otras Demencias</name><description>No description available</description><Point><coordinates>-1.6464599999999998,42.824860000000015</coordinates></Point></Placemark><Placemark><name>Ceafa Confederación Española de Familiares de Enfermos de Alzheimer y Otras Demencias</name><description>No description available</description><Point><coordinates>-1.6464599999999998,42.824860000000015</coordinates></Point></Placemark><Placemark><name>Centro de Día de la Asociación de Familiares de Enfermos de Alzheimer y Otras Demencias de Valdepeñas Afa Valdepeñas Gestión Privada</name><description>No description available</description><Point><coordinates>-3.3913,38.770681</coordinates></Point></Placemark><Placemark><name>Vitalzheimer, Centro terapéutico de día</name><description>No description available</description><Point><coordinates>-5.863086000000001,43.36775799999998</coordinates></Point></Placemark><Placemark><name>Asociación de Familiares de Enfermos de Alzeheimer</name><description>No description available</description><Point><coordinates>-8.399319,43.35374100000001</coordinates></Point></Placemark></Folder></kml>